[
  {
    "name": "National Aquarium",
    "city": "501 E Pratt St, Baltimore, MD 21202",
    "price": 45,
    "season": "All seasons",
    "interest": "History and Culture",
    "description": "Maryland's most popular aquarium featuring thousands of marine animals.",
    "link": "https://www.aqua.org",
    "lat": 39.2857,
    "lng": -76.6085,
    "rating": 0,
    "ratingCount": 0
  },
  {
    "name": "Assateague Island",
    "city": "7206 National Seashore Ln, Berlin, MD 21811",
    "price": 50,
    "season": "Spring",
    "interest": "Nature and Outdoors",
    "description": "Beautiful beaches, wild horses, and camping opportunities.",
    "link": "https://www.nps.gov/asis/index.htm",
    "lat": 38.0000,
    "lng": -75.2000,
    "rating": 0,
    "ratingCount": 0
  },
  {
    "name": "Fort McHenry",
    "city": "2400 E Fort Ave, Baltimore, MD 21230",
    "price": 15,
    "season": "All seasons",
    "interest": "History and Culture",
    "description": "Famous fort that inspired the U.S. national anthem.",
    "link": "https://www.nps.gov/fomc/index.htm",
    "lat": 39.2639,
    "lng": -76.5796,
    "rating": 0,
    "ratingCount": 0
  },
  {
    "name": "Chesapeake Bay Maritime Museum",
    "city": "213 N Talbot St, St. Michaels, MD 21663",
    "price": 20,
    "season": "Summer",
    "interest": "History and Culture",
    "description": "Explores maritime heritage with exhibits, boat rides, and workshops.",
    "link": "https://cbmm.org",
    "lat": 38.7896,
    "lng": -76.2436,
    "rating": 0,
    "ratingCount": 0
  },
  {
    "name": "Inner Harbor",
    "city": "201 E Pratt St, Baltimore, MD 21202",
    "price": 0,
    "season": "All seasons",
    "interest": "Food and Drink",
    "description": "Popular waterfront area with shops, restaurants, and attractions.",
    "link": "https://baltimore.org/places/inner-harbor",
    "lat": 39.2833,
    "lng": -76.6136,
    "rating": 0,
    "ratingCount": 0
  },
  {
    "name": "C&O Canal National Historical Park",
    "city": "1850 Dual Hwy, Hagerstown, MD 21740",
    "price": 0,
    "season": "All seasons",
    "interest": "Nature and Outdoors",
    "description": "Historic canal with trails for walking, biking, and kayaking.",
    "link": "https://www.nps.gov/choh/index.htm",
    "lat": 39.5945,
    "lng": -77.2123,
    "rating": 0,
    "ratingCount": 0
  },
  {
    "name": "Annapolis Historic District",
    "city": "Annapolis, MD 21401",
    "price": 0,
    "season": "All seasons",
    "interest": "History and Culture",
    "description": "Charming historic district with cobblestone streets and colonial architecture.",
    "link": "https://www.visitannapolis.org",
    "lat": 38.9784,
    "lng": -76.4922,
    "rating": 0,
    "ratingCount": 0
  },
  {
    "name": "Ocean City Boardwalk",
    "city": "1st St, Ocean City, MD 21842",
    "price": 0,
    "season": "Summer",
    "interest": "Beach and Fun",
    "description": "Famous boardwalk with shops, rides, and beach access.",
    "link": "https://ococean.com",
    "lat": 38.3366,
    "lng": -75.0849,
    "rating": 0,
    "ratingCount": 0
  },
  {
    "name": "Patapsco Valley State Park",
    "city": "8020 Baltimore National Pike, Ellicott City, MD 21043",
    "price": 0,
    "season": "All seasons",
    "interest": "Nature and Outdoors",
    "description": "Trails, waterfalls, and scenic views along the Patapsco River.",
    "link": "https://dnr.maryland.gov/publiclands/Pages/central/patapsco.aspx",
    "lat": 39.2531,
    "lng": -76.8236,
    "rating": 0,
    "ratingCount": 0
  },
  {
    "name": "St. Mary's City",
    "city": "18952 FDR Blvd, St. Mary's City, MD 20686",
    "price": 12,
    "season": "Spring",
    "interest": "History and Culture",
    "description": "Reconstructed colonial settlement and museum.",
    "link": "https://stmaryscity.org",
    "lat": 38.1772,
    "lng": -76.4240,
    "rating": 0,
    "ratingCount": 0
  },
  {
    "name": "Deep Creek Lake",
    "city": "18801 Garrett Hwy, McHenry, MD 21541",
    "price": 0,
    "season": "Summer",
    "interest": "Nature and Outdoors",
    "description": "Largest freshwater lake in Maryland, perfect for boating and fishing.",
    "link": "https://www.visitdeepcreek.com",
    "lat": 39.4900,
    "lng": -79.4000,
    "rating": 0,
    "ratingCount": 0
  },
  {
    "name": "The Walters Art Museum",
    "city": "600 N Charles St, Baltimore, MD 21201",
    "price": 0,
    "season": "All seasons",
    "interest": "History and Culture",
    "description": "World-class art museum with diverse collections.",
    "link": "https://thewalters.org",
    "lat": 39.2950,
    "lng": -76.6120,
    "rating": 0,
    "ratingCount": 0
  },
  {
    "name": "B&O Railroad Museum",
    "city": "901 W Pratt St, Baltimore, MD 21223",
    "price": 22,
    "season": "All seasons",
    "interest": "History and Culture",
    "description": "Historic railroad museum with locomotives and exhibits.",
    "link": "https://www.borail.org",
    "lat": 39.2957,
    "lng": -76.6090,
    "rating": 0,
    "ratingCount": 0
  },
  {
    "name": "Havre de Grace Promenade",
    "city": "101 N Union Ave, Havre de Grace, MD 21078",
    "price": 0,
    "season": "All seasons",
    "interest": "Food and Drink",
    "description": "Waterfront promenade with restaurants and shops.",
    "link": "https://www.havredegracemd.com",
    "lat": 39.5478,
    "lng": -76.0982,
    "rating": 0,
    "ratingCount": 0
  },
  {
    "name": "Calvert Cliffs State Park",
    "city": "10540 H.G. Trueman Rd, Lusby, MD 20657",
    "price": 0,
    "season": "Summer",
    "interest": "Nature and Outdoors",
    "description": "Fossil hunting, hiking trails, and scenic cliffs.",
    "link": "https://dnr.maryland.gov/publiclands/Pages/southern/calvertcliffs.aspx",
    "lat": 38.4478,
    "lng": -76.4667,
    "rating": 0,
    "ratingCount": 0
  },
  {
    "name": "Sandy Point State Park",
    "city": "1100 E College Pkwy, Annapolis, MD 21409",
    "price": 7,
    "season": "Summer",
    "interest": "Beach and Fun",
    "description": "Beach park with views of the Chesapeake Bay Bridge.",
    "link": "https://dnr.maryland.gov/publiclands/Pages/central/sandypoint.aspx",
    "lat": 38.9671,
    "lng": -76.4977,
    "rating": 0,
    "ratingCount": 0
  },
  {
    "name": "Elk Neck State Park",
    "city": "4395 Turkey Point Rd, North East, MD 21901",
    "price": 0,
    "season": "All seasons",
    "interest": "Nature and Outdoors",
    "description": "Scenic park with trails, beaches, and a lighthouse.",
    "link": "https://dnr.maryland.gov/publiclands/Pages/southern/elkneck.aspx",
    "lat": 39.5563,
    "lng": -75.9461,
    "rating": 0,
    "ratingCount": 0
  },
  {
    "name": "Antietam National Battlefield",
    "city": "119 E Main St, Sharpsburg, MD 21782",
    "price": 0,
    "season": "All seasons",
    "interest": "History and Culture",
    "description": "Civil War battlefield with visitor center and trails.",
    "link": "https://www.nps.gov/anti/index.htm",
    "lat": 39.4689,
    "lng": -77.7389,
    "rating": 0,
    "ratingCount": 0
  },
  {
    "name": "Kent Island",
    "city": "100 Kent Narrow Way, Chester, MD 21619",
    "price": 0,
    "season": "All seasons",
    "interest": "Nature and Outdoors",
    "description": "Island with birdwatching, biking, and water activities.",
    "link": "https://www.visitmaryland.org",
    "lat": 38.9825,
    "lng": -76.3233,
    "rating": 0,
    "ratingCount": 0
  },
  {
    "name": "Blackwater National Wildlife Refuge",
    "city": "2145 Key Wallace Dr, Cambridge, MD 21613",
    "price": 0,
    "season": "All seasons",
    "interest": "Nature and Outdoors",
    "description": "Wetlands refuge with birdwatching and hiking trails.",
    "link": "https://www.fws.gov/refuge/blackwater",
    "lat": 38.4467,
    "lng": -76.1036,
    "rating": 0,
    "ratingCount": 0
  }
]
